,var,station_id,station_name,latitude,longitude,altitude,unit,freq,framework,matrix
0,concpm10,CY0002R,Agia Marina Xyliatou ; Cyprus Atmospheric Observatory,35.0381,33.0578,523.0,ug m-3,monthly,EMEP,pm10
1,concpm10,GR0001R,Aliartos,38.366667,23.083333,110.0,ug m-3,monthly,EMEP,pm10
2,concpm10,SE0012R,Aspvreten,58.8,17.383333,20.0,ug m-3,monthly,EMEP,pm10
3,concpm10,GB0048R,Auchencorth Moss,55.79216,-3.2429,260.0,ug m-3,monthly,EMEP;EMEP CAMP,pm10
4,concpm10,ES0011R,Barcarrota,38.47278,-6.92361,393.0,ug m-3,monthly,EMEP,pm10
5,concpm10,CH0053R,Beromünster,47.18961391,8.175433684,797.0,ug m-3,monthly,EMEP,pm10
6,concpm10,NO0002R;NO0001R,Birkenes II,58.38853,8.252,223.0,ug m-3,monthly,EMEP GAW-WDCA NILU;EMEP NILU,pm10
7,concpm10,SE0005R,Bredkälen,63.85,15.333333,404.0,ug m-3,monthly,EMEP,pm10
8,concpm10,NL0644R,Cabauw Wielsekade,51.974444,4.923611,3.0,ug m-3,monthly,EMEP,pm10
9,concpm10,ES0010R,Cabo de Creus,42.31917,3.31583,76.0,ug m-3,monthly,EMEP,pm10
10,concpm10,GB1055R,Chilbolton Observatory,51.149617,-1.438228,78.0,ug m-3,monthly,EMEP,pm10
11,concpm10,NL0091R,De Zilk,52.3,4.5,6.0,ug m-3,monthly,EMEP,pm10
12,concpm10,DE0004R,Deuselbach,49.764722,7.051944,480.0,ug m-3,monthly,EMEP,pm10
13,concpm10,PL0005R,Diabla Gora,54.15,22.066667,159.0,ug m-3,monthly,EMEP,pm10
14,concpm10,FR0008R,Donon,48.5,7.133333,775.0,ug m-3,monthly,EMEP,pm10
15,concpm10,ES0017R,Doñana,37.05194,-6.55528,35.0,ug m-3,monthly,EMEP,pm10
16,concpm10,NL0007R,Eibergen,52.083333,6.566667,22.0,ug m-3,monthly,EMEP,pm10
17,concpm10,ES0014R,Els Torms,41.39389,0.73472,470.0,ug m-3,monthly,EMEP,pm10
18,concpm10,HU0003R,Farkasfa,46.91,16.32,315.0,ug m-3,monthly,EMEP,pm10
19,concpm10,GR0002R,Finokalia,35.3377990723,25.6693992615,155.0,ug m-3,monthly,ACTRIS GAW-WDCA;EMEP EUSAAR GAW-WDCA,pm10
20,concpm10,FR0024R,Guipry,47.831888889,-1.836333333,29.45,ug m-3,monthly,EMEP,pm10
21,concpm10,SE0011R,Hallahus,56.016667,13.15,175.0,ug m-3,monthly,EMEP,pm10
22,concpm10,GB0036R,Harwell,51.573056,-1.316667,137.0,ug m-3,monthly,EMEP;EMEP CAMP,pm10
23,concpm10,DE0043G,Hohenpeissenberg,47.8014984131,11.009619,990.0,ug m-3,monthly,ACTRIS EMEP GAW-WDCA;ACTRIS GAW-WDCA;EMEP EUSAAR GAW-WDCA,pm10
24,concpm10,NO0056R,Hurdal,60.372386,11.078142,300.0,ug m-3,monthly,EMEP NILU,pm10
25,concpm10,FI0050R,Hyytiälä,61.85,24.283333,189.0,ug m-3,monthly,EMEP GAW-WDCA;EMEP EUSAAR GAW-WDCA,pm10
26,concpm10,AT0002R,Illmitz,47.7666664124,16.7666664124,117.0,ug m-3,monthly,EMEP,pm10
27,concpm10,SI0008R,Iskrba,45.566667,14.866667,525.0,ug m-3,monthly,EMEP,pm10
28,concpm10,IT0004R,Ispra,45.8,8.633333,209.0,ug m-3,monthly,EMEP,pm10
29,concpm10,HU0002R,K-puszta,46.966667,19.583333,129.0,ug m-3,monthly,EMEP;EMEP GAW-WDCRG,pm10
30,concpm10,RS0005R,Kamenicki vis,43.4,21.95,813.0,ug m-3,monthly,EMEP,pm10
31,concpm10,DK0005R,Keldsnor,54.746495,10.73616,10.0,ug m-3,monthly,EMEP,pm10
32,concpm10,NL0009R,Kollumerwaard,53.333889,6.277222,3.0,ug m-3,monthly,EMEP,pm10
33,concpm10,CZ0003R,Kosetice (NOAK),49.573394,15.080278,535.0,ug m-3,monthly,EMEP;ACTRIS EMEP,pm10
34,concpm10,NO0039R,Kårvatn,62.783333,8.883333,210.0,ug m-3,monthly,EMEP NILU,pm10
35,concpm10,FR0018R,La Coulonche,48.633333,-0.45,309.0,ug m-3,monthly,EMEP,pm10
36,concpm10,FR0015R,La Tardière,46.65,-0.75,133.0,ug m-3,monthly,EMEP,pm10
37,concpm10,EE0009R,Lahemaa,59.5,25.9,32.0,ug m-3,monthly,EMEP,pm10
38,concpm10,MD0013R,Leova II,46.4884,28.2835,166.0,ug m-3,monthly,EMEP,pm10
39,concpm10,SK0005R,Liesek,49.366667,19.683333,892.0,ug m-3,monthly,EMEP,pm10
40,concpm10,DK0041R,Lille Valby,55.686944,12.126111,10.0,ug m-3,monthly,EMEP,pm10
41,concpm10,GB0006R,Lough Navar,54.443056,-7.87,126.0,ug m-3,monthly,EMEP,pm10
42,concpm10,ES0006R,Mahón,39.87528,4.31639,78.0,ug m-3,monthly,EMEP;EMEP GAW-WDCA,pm10
43,concpm10,DE0044R,Melpitz,51.5255,12.9277,90.0,ug m-3,monthly,ACTRIS EMEP,pm10
44,concpm10,FR0014R,Montandon,47.3,6.833333,836.0,ug m-3,monthly,EMEP,pm10
45,concpm10,IT0001R,Montelibretti,42.1,12.633333,48.0,ug m-3,monthly,EMEP,pm10
46,concpm10,ES1778R,Montseny,41.766667,2.35,700.0,ug m-3,monthly,EMEP;ACTRIS EMEP,pm10
47,concpm10,FR0010R,Morvan,47.266667,4.083333,620.0,ug m-3,monthly,EMEP,pm10
48,concpm10,GB0043R,Narberth,51.781784,-4.691462,160.0,ug m-3,monthly,EMEP,pm10
49,concpm10,DE0007R,Neuglobsow,53.166667,13.033333,63.75,ug m-3,monthly,EMEP,pm10
50,concpm10,ES0008R,Niembro,43.43917,-4.85,134.0,ug m-3,monthly,EMEP,pm10
51,concpm10,ES0005R,Noia,42.72056,-8.92361,683.0,ug m-3,monthly,EMEP GAW-WDCA,pm10
52,concpm10,SE0022R,Norunda Stenen,60.0858,17.50528,45.0,ug m-3,monthly,EMEP,pm10
53,concpm10,ES0016R,O Saviñao,42.63472,-7.70472,506.0,ug m-3,monthly,EMEP,pm10
54,concpm10,FI0096G,Pallas (Sammaltunturi),67.973333333,24.116111111,570.0,ug m-3,monthly,EMEP,pm10
55,concpm10,CH0002R,Payerne,46.813056,6.944722,489.0,ug m-3,monthly,EMEP,pm10
56,concpm10,ES0013R,Penausende,41.23889,-5.8975,985.0,ug m-3,monthly,EMEP,pm10
57,concpm10,FR0013R,Peyrusse Vieille,43.616667,0.183333,200.0,ug m-3,monthly,EMEP,pm10
58,concpm10,RO0008R,Poiana Stampei,47.324792,25.134664,908.0,ug m-3,monthly,EMEP,pm10
59,concpm10,HR0002R,Puntijarka,45.9,15.966667,990.0,ug m-3,monthly,EMEP,pm10
60,concpm10,FR0009R,Revin,49.9,4.633333,390.0,ug m-3,monthly,EMEP,pm10
61,concpm10,DK0012R,Risoe,55.693588,12.085797,3.0,ug m-3,monthly,EMEP,pm10
62,concpm10,LV0010R,Rucava,56.161944,21.173056,21.0,ug m-3,monthly,EMEP GAW-WDCA,pm10
63,concpm10,SE0014R,Råö,57.394,11.914,5.0,ug m-3,monthly,EMEP;EMEP CAMP,pm10
64,concpm10,FR0020R,SIRTA Atmospheric Research Observatory,48.7086111111,2.15888888889,168.0,ug m-3,monthly,ACTRIS GAW-WDCA,pm10
65,concpm10,FR0023R,Saint-Nazaire-le-Désert,44.569444444,5.278972222,605.0,ug m-3,monthly,EMEP,pm10
66,concpm10,ES0001R,San Pablo de los Montes,39.54694,-4.35056,917.0,ug m-3,monthly,EMEP,pm10
67,concpm10,DE0008R,Schmücke,50.65,10.766667,939.85,ug m-3,monthly,EMEP,pm10
68,concpm10,AT0004R,St. Koloman,47.65,13.2,851.0,ug m-3,monthly,EMEP,pm10
69,concpm10,SK0006R,Starina,49.05,22.266667,345.0,ug m-3,monthly,EMEP,pm10
70,concpm10,SK0004R,Stará Lesná,49.15,20.283333,808.0,ug m-3,monthly,EMEP,pm10
71,concpm10,CZ0001R,Svratouch,49.735084444,16.034196944,735.0,ug m-3,monthly,EMEP,pm10
72,concpm10,SK0007R,Topolniky,47.96,17.860556,113.0,ug m-3,monthly,EMEP,pm10
73,concpm10,CH0003R,Tänikon,47.479722,8.904722,539.0,ug m-3,monthly,EMEP,pm10
74,concpm10,SE0035R,Vindeln,64.25,19.766667,225.0,ug m-3,monthly,EMEP,pm10
75,concpm10,FI0018R;FI0017R,Virolahti III,60.53002,27.66754,9.0,ug m-3,monthly,EMEP,pm10
76,concpm10,NL0010R,Vredepeel,51.541111,5.853611,30.0,ug m-3,monthly,EMEP,pm10
77,concpm10,DE0002R,Waldhof,52.802222,10.759444,75.8,ug m-3,monthly,EMEP,pm10
78,concpm10,DE0001R,Westerland,54.925556,8.309722,13.75,ug m-3,monthly,EMEP,pm10
79,concpm10,ES0012R,Zarra,39.08278,-1.10111,885.0,ug m-3,monthly,EMEP,pm10
80,concpm10,PL0009R,Zielonka,53.662117,17.934017,123.0,ug m-3,monthly,EMEP,pm10
81,concpm10,DE0009R,Zingst,54.4368,12.7249,2.75,ug m-3,monthly,EMEP,pm10
82,concpm10,AT0048R,Zoebelboden,47.838611,14.441389,899.0,ug m-3,monthly,EMEP,pm10
83,concpm10,LV0016R,Zoseni,57.135278,25.905556,188.0,ug m-3,monthly,EMEP,pm10
